[
  {"id": "G33", "name": "Bedford-Nostrand Avs", "lines": ["G"], "lat": 40.6896, "lng": -73.9535, "borough": "Brooklyn"},
  {"id": "G34", "name": "Classon Av", "lines": ["G"], "lat": 40.6889, "lng": -73.9600, "borough": "Brooklyn"},
  {"id": "G35", "name": "Clinton-Washington Avs (G)", "lines": ["G"], "lat": 40.6880, "lng": -73.9667, "borough": "Brooklyn"},
  {"id": "G36", "name": "Fulton St (G)", "lines": ["G"], "lat": 40.6870, "lng": -73.9752, "borough": "Brooklyn"},
  {"id": "A42", "name": "Hoyt-Schermerhorn Sts", "lines": ["A", "C", "G"], "lat": 40.6884, "lng": -73.9851, "borough": "Brooklyn"},
  {"id": "G31", "name": "Flushing Av", "lines": ["G"], "lat": 40.7004, "lng": -73.9504, "borough": "Brooklyn"},
  {"id": "G32", "name": "Myrtle-Willoughby Avs", "lines": ["G"], "lat": 40.6946, "lng": -73.9489, "borough": "Brooklyn"},
  {"id": "G30", "name": "Broadway (G)", "lines": ["G"], "lat": 40.7063, "lng": -73.9503, "borough": "Brooklyn"},
  {"id": "G29", "name": "Metropolitan Av", "lines": ["G"], "lat": 40.7127, "lng": -73.9511, "borough": "Brooklyn"},
  {"id": "G28", "name": "Nassau Av", "lines": ["G"], "lat": 40.7244, "lng": -73.9512, "borough": "Brooklyn"},
  {"id": "G26", "name": "Greenpoint Av", "lines": ["G"], "lat": 40.7313, "lng": -73.9542, "borough": "Brooklyn"},
  {"id": "G22", "name": "Court Sq", "lines": ["G", "7", "E", "M"], "lat": 40.7471, "lng": -73.9456, "borough": "Queens"},
  {"id": "G21", "name": "Long Island City-Court Sq", "lines": ["G"], "lat": 40.7460, "lng": -73.9436, "borough": "Queens"},
  {"id": "F09", "name": "Court Sq-23 St", "lines": ["E", "M"], "lat": 40.7479, "lng": -73.9461, "borough": "Queens"},
  {"id": "F11", "name": "21 St-Queensbridge", "lines": ["F"], "lat": 40.7543, "lng": -73.9424, "borough": "Queens"},
  {"id": "D24", "name": "Atlantic Av-Barclays Ctr", "lines": ["B", "Q", "D", "N", "R", "2", "3", "4", "5"], "lat": 40.6842, "lng": -73.9779, "borough": "Brooklyn"},
  {"id": "A41", "name": "Jay St-MetroTech", "lines": ["A", "C", "F", "R"], "lat": 40.6923, "lng": -73.9872, "borough": "Brooklyn"},
  {"id": "R30", "name": "DeKalb Av", "lines": ["B", "Q", "R"], "lat": 40.6907, "lng": -73.9818, "borough": "Brooklyn"},
  {"id": "R28", "name": "Borough Hall", "lines": ["2", "3", "4", "5", "R"], "lat": 40.6923, "lng": -73.9901, "borough": "Brooklyn"},
  {"id": "R16", "name": "Times Sq-42 St", "lines": ["1", "2", "3", "7", "N", "Q", "R", "W", "S"], "lat": 40.7559, "lng": -73.9871, "borough": "Manhattan"},
  {"id": "R17", "name": "34 St-Herald Sq", "lines": ["B", "D", "F", "M", "N", "Q", "R", "W"], "lat": 40.7497, "lng": -73.9878, "borough": "Manhattan"},
  {"id": "R20", "name": "14 St-Union Sq", "lines": ["4", "5", "6", "L", "N", "Q", "R", "W"], "lat": 40.7356, "lng": -73.9906, "borough": "Manhattan"},
  {"id": "631", "name": "Grand Central-42 St", "lines": ["4", "5", "6", "7", "S"], "lat": 40.7527, "lng": -73.9772, "borough": "Manhattan"},
  {"id": "A28", "name": "34 St-Penn Station", "lines": ["1", "2", "3", "A", "C", "E"], "lat": 40.7506, "lng": -73.9910, "borough": "Manhattan"}
]
